City_ID,City,Lat,Lng,Max Temp,Humidity,Cloudiness,Wind Speed,Country,Date
0,mamurras,41.5775,19.6922,299.23,61,0,2.06,AL,1690957035
1,anadyr,64.75,177.4833,284.82,76,40,6.0,RU,1690956499
2,margaret river,-33.95,115.0667,282.33,92,100,10.25,AU,1690956489
3,papatowai,-46.5619,169.4708,278.3,67,99,9.56,NZ,1690956504
4,avarua,-21.2078,-159.775,295.18,78,75,4.63,CK,1690956471
5,sechura,-5.5569,-80.8222,294.42,79,4,3.38,PE,1690957036
6,albert lea,43.648,-93.3683,295.0,60,63,3.73,US,1690957036
7,iskateley,67.6803,53.1512,295.28,56,32,4.06,RU,1690956481
8,mancio lima,-7.6142,-72.8958,294.77,69,77,0.46,BR,1690957037
9,orland,39.7474,-122.1964,301.09,31,23,1.92,US,1690957037
10,uzgen,40.7699,73.3007,304.31,19,98,1.74,KG,1690957037
11,mount isa,-20.7333,139.5,301.02,23,8,6.17,AU,1690956500
12,ambovombe,-25.1667,46.0833,293.44,61,72,5.64,MG,1690956606
13,utrik,11.2278,169.8474,301.61,78,97,6.44,MH,1690956486
14,lompoc,34.6391,-120.4579,288.44,85,40,6.71,US,1690956545
15,wailua homesteads,22.0669,-159.378,300.39,86,100,6.69,US,1690956478
16,mandalgovi,45.7625,106.2708,300.71,38,41,5.81,MN,1690957038
17,greenville,35.6127,-77.3663,294.33,89,0,0.0,US,1690956503
18,ribeira grande,38.5167,-28.7,296.91,91,99,1.79,PT,1690956475
19,rieti,42.4072,12.8592,295.92,58,5,4.12,IT,1690957039
20,yellowknife,62.456,-114.3525,290.44,55,20,2.57,CA,1690957039
21,qaqortoq,60.7167,-46.0333,278.89,86,15,1.21,GL,1690956504
22,naze,28.3667,129.4833,300.66,90,100,13.95,JP,1690957040
23,atafu village,-8.5421,-172.5159,301.73,75,99,5.57,TK,1690956550
24,puerto penasco,31.3167,-113.5333,304.77,66,19,1.34,MX,1690957040
25,portland,45.5234,-122.6762,297.14,57,0,3.09,US,1690956319
26,borogontsy,62.6683,131.1683,292.2,56,85,0.43,RU,1690956606
27,vilyuchinsk,52.9306,158.4028,292.3,78,82,2.91,RU,1690956771
28,hawaiian paradise park,19.5933,-154.9731,296.89,93,100,2.06,US,1690956472
29,atmore,31.0238,-87.4939,298.09,85,15,2.06,US,1690957041
30,invercargill,-46.4,168.35,278.72,76,82,6.71,NZ,1690956413
31,fort bragg,35.139,-79.006,295.88,86,29,0.45,US,1690956575
32,port-aux-francais,-49.35,70.2167,276.66,77,93,16.32,TF,1690956472
33,broken hill,-31.95,141.4333,291.36,34,0,3.1,AU,1690956525
34,springbok,-29.6643,17.8865,280.4,32,0,4.82,ZA,1690957042
35,namsos,64.4662,11.4957,290.18,72,0,4.63,NO,1690956828
36,howard springs,-12.497,131.047,306.1,29,58,2.41,AU,1690956535
37,adamstown,-25.066,-130.1015,294.28,57,84,8.76,PN,1690956475
38,puerto natales,-51.7236,-72.4875,273.67,89,94,8.48,CL,1690956475
39,vorkuta,67.5,64.0,296.61,54,16,3.27,RU,1690956511
40,kidal,18.4411,1.4078,304.9,41,35,5.39,ML,1690956491
41,puerto baquerizo moreno,-0.9,-89.6,297.75,77,64,4.46,EC,1690956520
42,la ronge,55.1001,-105.2842,286.29,94,40,0.0,CA,1690956755
43,fiche,9.8,38.7333,282.53,91,100,0.38,ET,1690957044
44,pacaembu,-21.5622,-51.2606,289.32,51,0,2.12,BR,1690957044
45,bredasdorp,-34.5322,20.0403,279.25,81,1,1.58,ZA,1690956495
46,waitangi,-43.9535,-176.5597,282.49,87,100,5.81,NZ,1690956473
47,tiksi,71.6872,128.8694,283.12,75,100,1.78,RU,1690956488
48,port lincoln,-34.7333,135.8667,291.56,50,35,5.51,AU,1690956482
49,margate,51.3813,1.3862,290.87,95,100,4.02,GB,1690956485
50,awjilah,29.1081,21.2869,302.39,43,0,1.75,LY,1690957045
51,kodiak,57.79,-152.4072,290.88,72,0,3.09,US,1690956499
52,afaahiti,-17.75,-149.2833,297.63,77,98,4.84,PF,1690956552
53,ancud,-41.8697,-73.8203,280.59,74,87,7.24,CL,1690956500
54,gadzhiyevo,69.2551,33.3362,291.63,77,39,3.38,RU,1690956222
55,punta arenas,-53.15,-70.9167,272.1,86,83,8.51,CL,1690956477
56,blackmans bay,-43.0167,147.3167,288.0,63,15,1.7,AU,1690956201
57,yen vinh,18.6667,105.6667,297.63,97,100,1.99,VN,1690957046
58,albany,42.6001,-73.9662,286.33,87,39,0.89,US,1690956686
59,akureyri,65.6835,-18.0878,282.11,93,100,2.57,IS,1690956865
60,rosarito,32.3333,-117.0333,295.08,79,16,2.67,MX,1690956484
61,port mathurin,-19.6833,63.4167,296.4,68,0,8.65,MU,1690956488
62,ushuaia,-54.8,-68.3,269.96,93,100,1.54,AR,1690956469
63,lebu,-37.6167,-73.65,282.06,86,11,3.77,CL,1690956528
64,dryden,49.7833,-92.7503,290.49,97,97,2.27,CA,1690956522
65,keflavik,64.0049,-22.5624,283.39,93,0,5.66,IS,1690956485
66,edinburgh of the seven seas,-37.0676,-12.3116,285.4,82,97,10.75,SH,1690956474
67,college,64.8569,-147.8028,296.12,51,75,2.06,US,1690956508
68,xilin hot,43.9667,116.0333,308.06,34,2,7.91,CN,1690956810
69,whitehorse,60.7161,-135.0538,287.21,87,67,1.36,CA,1690956489
70,sangueya,10.7,-14.3667,296.8,95,100,0.5,GN,1690956833
71,bethel,41.3712,-73.414,290.17,82,0,1.54,US,1690956477
72,villa gesell,-37.2639,-56.973,287.07,71,38,2.75,AR,1690956821
73,gotenba,35.3,138.9333,306.78,62,20,3.37,JP,1690957049
74,yazman,29.1212,71.7446,309.77,40,0,7.61,PK,1690957049
75,la'ie,21.6477,-157.9253,300.13,75,23,8.26,US,1690956544
76,lorengau,-2.0226,147.2712,301.11,81,75,4.8,PG,1690956573
77,alaghsas,17.0187,8.0168,302.1,39,41,3.64,NE,1690956583
78,usogorsk,63.4106,48.6872,297.54,52,97,1.02,RU,1690956535
79,rojhan,28.6868,69.9534,310.33,41,2,5.24,PK,1690957050
80,west island,-12.1568,96.8225,301.14,69,40,7.72,CC,1690956482
81,amol,36.4696,52.3507,303.78,60,75,2.39,IR,1690957051
82,klyuchi,52.2667,79.1667,306.24,23,42,2.73,RU,1690956536
83,hermanus,-34.4187,19.2345,279.71,68,0,3.97,ZA,1690956482
84,naftalan,40.5067,46.825,302.83,41,0,1.86,AZ,1690957051
85,kodinsk,58.6881,99.1844,297.01,75,3,2.85,RU,1690956809
86,la cruz,23.9167,-106.9,299.44,77,91,1.46,MX,1690957052
87,colonia,50.9333,6.95,289.8,87,20,5.14,DE,1690956588
88,jamestown,42.097,-79.2353,289.66,93,0,0.45,US,1690956311
89,cosenza,39.31,16.2502,298.66,54,4,1.54,IT,1690957053
90,razumnoye,50.5344,36.6846,295.75,78,0,4.0,RU,1690957053
91,grytviken,-54.2811,-36.5092,271.11,95,100,3.13,GS,1690956474
92,bilibino,68.0546,166.4372,289.77,46,21,0.85,RU,1690956492
93,flying fish cove,-10.4217,105.6791,299.97,83,75,3.6,CX,1690956472
94,macapa,0.0389,-51.0664,297.14,100,100,1.54,BR,1690957054
95,christchurch,-43.5333,172.6333,279.26,72,20,8.23,NZ,1690956717
96,"laikit, laikit ii (dimembe)",1.4792,124.9735,303.62,62,20,2.57,ID,1690957054
97,san patricio,28.017,-97.5169,303.07,74,16,4.15,US,1690956519
98,menaka,15.9182,2.4022,301.13,62,100,8.7,ML,1690957055
99,farafangana,-22.8167,47.8333,293.84,77,98,7.42,MG,1690957055
100,pampas,-12.4,-74.9,279.95,90,32,0.17,PE,1690957055
101,hasaki,35.7333,140.8333,307.76,79,50,8.36,JP,1690956590
102,tubarjal,30.4999,38.216,304.91,15,0,8.54,SA,1690956520
103,touros,-5.1989,-35.4608,297.08,88,33,4.95,BR,1690956439
104,iqaluit,63.7506,-68.5145,277.98,93,99,1.08,CA,1690956492
105,colares,38.7992,-9.4469,295.0,85,75,9.39,PT,1690957056
106,acapulco de juarez,16.8634,-99.8901,301.05,83,75,0.0,MX,1690956568
107,dudinka,69.4058,86.1778,294.61,45,6,11.07,RU,1690956514
108,manggar,-2.8833,108.2667,302.51,70,34,5.5,ID,1690957057
109,carnarvon,-24.8667,113.6333,292.99,82,56,12.8,AU,1690956484
110,yebaishou,41.3975,119.6408,306.38,54,52,8.5,CN,1690957057
111,boke,10.9409,-14.2967,296.68,97,99,0.31,GN,1690957057
112,arti,56.4234,58.5328,296.19,63,46,0.7,RU,1690957058
113,ebon,4.582,168.6964,302.01,70,14,2.41,MH,1690957058
114,mount pearl,47.5166,-52.7813,288.34,94,100,3.6,CA,1690956907
115,olonkinbyen,70.9221,-8.7187,278.8,94,61,2.6,SJ,1690956490
116,vorgashor,67.5833,63.95,296.53,53,16,3.45,RU,1690956481
117,ubari,26.5921,12.7805,302.68,22,0,4.37,LY,1690956594
118,tougan,13.0667,-3.0667,297.9,81,99,3.65,BF,1690957059
119,thompson,55.7435,-97.8558,290.37,74,36,4.01,CA,1690956512
120,ozernyy,55.5802,32.4127,293.14,87,44,2.66,RU,1690957059
121,kulhudhuffushi,6.6221,73.07,301.38,75,100,5.62,MV,1690957059
122,dunedin,-45.8742,170.5036,276.93,79,100,8.49,NZ,1690956813
123,aioun,16.6614,-9.6149,304.88,45,92,5.61,MR,1690956517
124,queenstown,-31.8976,26.8753,279.42,54,8,1.67,ZA,1690956562
125,egilsstadir,65.2653,-14.3948,282.04,94,100,4.12,IS,1690956566
126,conde,-7.2597,-34.9075,294.85,100,0,1.54,BR,1690957061
127,sisimiut,66.9395,-53.6735,278.4,93,99,0.88,GL,1690956776
128,benguela,-12.5763,13.4055,292.97,90,75,0.91,AO,1690957061
129,bondo,3.8146,23.6866,294.87,97,100,0.88,CD,1690957062
130,fort mcmurray,56.7268,-111.381,288.88,94,75,3.09,CA,1690956569
131,uturoa,-16.7333,-151.4333,299.46,71,81,5.14,PF,1690956479
132,remire-montjoly,4.9167,-52.2667,296.17,100,100,0.0,GF,1690956484
133,kingston,17.997,-76.7936,300.51,91,92,0.45,JM,1690956539
134,lihue,21.9789,-159.3672,300.73,82,100,6.69,US,1690956470
135,mount gambier,-37.8333,140.7667,288.57,65,0,4.69,AU,1690956354
136,berezovyy,51.6667,135.7,289.0,87,96,3.56,RU,1690956776
137,bikenibeu village,1.3673,173.1241,304.13,70,75,1.54,KI,1690956761
138,huarmey,-10.0681,-78.1522,292.52,86,22,3.82,PE,1690956589
139,chintamani,13.4,78.0667,300.34,50,100,10.42,IN,1690957063
140,prince george,53.9166,-122.753,287.84,62,100,3.09,CA,1690956777
141,bengkulu,-3.8004,102.2655,301.59,70,85,2.56,ID,1690956747
142,constantia,44.1833,28.65,298.54,67,94,4.97,RO,1690956498
143,simanggang,1.2472,111.4528,301.14,89,40,1.54,MY,1690957064
144,as sulayyil,20.4607,45.5779,309.29,9,68,7.46,SA,1690957064
145,talnakh,69.4865,88.3972,294.38,37,5,9.64,RU,1690956513
146,darnah,32.767,22.6367,300.68,62,0,3.21,LY,1690957065
147,yorkton,51.2167,-102.4677,292.71,42,71,3.0,CA,1690956637
148,fes,34.0372,-4.9998,292.29,68,0,1.54,MA,1690957065
149,megion,61.0296,76.1136,295.16,63,50,3.79,RU,1690957066
150,vila franca do campo,37.7167,-25.4333,298.81,91,17,2.09,PT,1690956533
151,shirhatti,15.2333,75.5833,299.35,68,99,11.06,IN,1690957066
152,guapiles,10.2159,-83.7866,299.17,94,100,1.31,CR,1690957066
153,rio grande,-32.035,-52.0986,289.32,93,0,2.79,BR,1690956594
154,maicao,11.3832,-72.2432,299.61,82,4,1.06,CO,1690957067
155,chibougamau,49.9168,-74.3659,284.89,66,100,1.68,CA,1690956522
156,greci,45.1833,28.2333,297.31,53,93,3.17,RO,1690957067
157,xai-xai,-25.0519,33.6442,291.32,69,78,5.06,MZ,1690957067
158,cholpon-ata,42.6494,77.0823,298.18,58,92,2.54,KG,1690957068
159,myeik,12.4333,98.6,301.17,85,98,6.52,MM,1690957068
160,altay,47.8667,88.1167,303.33,28,12,6.27,CN,1690957068
161,cururupu,-1.8283,-44.8683,296.55,98,22,2.09,BR,1690957068
162,saipan,15.1355,145.701,301.54,100,100,2.57,MP,1690956481
163,vilyuysk,63.7553,121.6247,297.53,29,2,2.03,RU,1690956541
164,kavieng,-2.5744,150.7967,300.78,77,91,7.48,PG,1690956579
165,puerto ayora,-0.7393,-90.3518,297.34,93,50,2.68,EC,1690956496
166,mont-laurier,46.5501,-75.4993,284.01,77,62,0.86,CA,1690956471
167,yarkovo,57.4028,67.0786,296.2,57,90,3.43,RU,1690957070
168,berdigestyakh,62.0989,126.6992,292.39,48,63,0.8,RU,1690956579
169,hamilton,39.1834,-84.5333,293.64,84,0,2.57,US,1690956279
170,la sarre,48.8002,-79.1996,283.8,64,64,2.4,CA,1690956894
171,pontalina,-17.525,-49.4472,292.09,54,0,1.78,BR,1690957070
172,santa cruz,-17.8,-63.1667,293.85,88,0,2.57,BO,1690956800
173,ilulissat,69.2167,-51.1,279.16,100,100,2.06,GL,1690956485
174,alice springs,-23.7,133.8833,297.9,25,0,6.17,AU,1690956548
175,maple ridge,49.2194,-122.6019,291.94,80,5,0.89,CA,1690956607
176,ohafia-ifigh,5.6146,7.8119,295.57,97,100,1.1,NG,1690957071
177,paita,-5.0892,-81.1144,294.22,83,29,2.97,PE,1690956942
178,tshabong,-26.05,22.45,279.55,35,0,5.42,BW,1690957072
179,kone,-21.0595,164.8658,294.71,58,21,5.25,NC,1690956489
180,port alfred,-33.5906,26.891,286.26,69,9,3.58,ZA,1690956766
181,venado,22.9333,-101.0833,292.24,78,77,4.27,MX,1690957072
182,vetlanda,57.4289,15.0776,288.18,92,72,2.51,SE,1690957072
183,namibe,-15.1961,12.1522,289.93,83,31,1.23,AO,1690956526
184,sinabang,2.4803,96.3801,302.62,65,87,0.92,ID,1690956518
185,susuman,62.7833,148.1667,288.44,47,94,5.46,RU,1690956479
186,luquillo,18.3725,-65.7166,300.94,96,0,0.0,PR,1690956565
187,kuanda,56.3161,116.0806,290.97,79,100,1.46,RU,1690957073
188,hadibu,12.65,54.0333,301.27,67,74,12.68,YE,1690956587
189,anna regina,7.2644,-58.5077,298.25,88,51,1.55,GY,1690957074
190,harper,4.375,-7.7169,297.74,86,100,4.99,LR,1690956742
191,rongelap,11.1635,166.8941,301.83,79,95,7.06,MH,1690956863
192,enterprise,36.0252,-115.2419,300.58,46,100,2.57,US,1690957074
193,chernyshevskiy,63.0128,112.4714,298.13,28,2,1.05,RU,1690956536
194,napier,-39.4833,176.9167,281.08,71,100,4.02,NZ,1690957075
195,puerto colombia,10.9878,-74.9547,300.2,85,70,5.33,CO,1690957075
196,fort st. john,56.2499,-120.8529,283.74,89,67,0.34,CA,1690956529
197,shevchenko,48.5,35.0,299.64,45,8,2.51,UA,1690957075
198,dul'durga,50.6761,113.5931,305.42,25,99,5.0,RU,1690957076
199,pandan,14.0453,124.1694,305.24,63,89,5.16,PH,1690956803
200,yerofey pavlovich,53.9667,121.9667,297.17,26,100,2.81,RU,1690957076
201,songling,31.1933,120.7176,307.33,53,40,4.89,CN,1690957076
202,stanley,54.868,-1.6985,286.55,92,20,4.12,GB,1690956419
203,georgetown,5.4112,100.3354,305.11,74,20,2.06,MY,1690956379
204,vel'sk,61.0701,42.0983,295.94,56,15,0.43,RU,1690957077
205,pemba,-12.974,40.5178,296.66,67,1,8.6,MZ,1690957077
206,saint-joseph,-21.3667,55.6167,298.41,76,15,3.55,RE,1690956767
207,vadso,70.0744,29.7487,287.64,94,75,2.57,NO,1690956523
208,yantzaza,-3.8278,-78.7594,291.27,79,91,0.27,EC,1690957078
209,argo,37.6333,22.7333,301.36,42,0,0.66,GR,1690956786
210,frolovo,49.7713,43.6622,301.14,35,76,2.65,RU,1690957078
211,itaituba,-4.2761,-55.9836,298.8,64,96,0.57,BR,1690956595
212,island harbour,50.724,-1.2758,290.33,92,89,3.13,GB,1690956814
213,ribadesella,43.4614,-5.0596,294.23,82,0,2.23,ES,1690957079
214,isafjordur,66.0755,-23.124,282.63,83,98,1.55,IS,1690957079
215,petropavlovsk-kamchatsky,53.0452,158.6483,291.48,68,0,5.0,RU,1690957080
216,talara,-4.5772,-81.2719,294.07,90,31,4.24,PE,1690957080
217,lubang,13.8584,120.124,301.03,84,99,10.55,PH,1690956788
218,san antonio de pale,-1.4014,5.6325,295.42,74,84,5.07,GQ,1690956558
219,zaozersk,69.4005,32.4476,292.13,76,18,2.54,RU,1690957081
220,bakchar,57.0186,82.0711,300.02,46,18,2.31,RU,1690957081
221,nuku'alofa,-21.1333,-175.2,293.34,94,100,4.12,TO,1690956563
222,mata-utu,-13.2816,-176.1745,301.05,77,34,3.6,WF,1690956852
223,nar'yan-mar,67.6713,53.087,295.4,56,32,4.08,RU,1690956483
224,binzhou,37.3667,118.0167,307.02,55,17,3.82,CN,1690957081
225,sehwan,26.4279,67.863,310.33,42,4,2.83,PK,1690957082
226,belyy yar,53.6039,91.3903,301.09,51,0,2.0,RU,1690956791
227,mohpa,21.3167,78.8167,299.79,78,100,6.62,IN,1690957082
228,fisterra,42.9049,-9.2629,294.68,97,97,6.58,ES,1690957082
229,el nido,11.1858,119.3956,302.79,73,100,8.0,PH,1690957083
230,kill devil hills,36.0307,-75.676,297.58,70,0,4.63,US,1690956530
231,mossel bay,-34.1831,22.146,279.11,60,4,2.97,ZA,1690956584
232,yazihan,38.5947,38.18,303.3,37,0,2.06,TR,1690957083
233,richards bay,-28.783,32.0377,288.33,68,63,1.67,ZA,1690956804
234,meadville,41.6414,-80.1515,287.36,92,39,2.22,US,1690957084
235,medina,24.4686,39.6142,309.39,7,0,3.6,SA,1690956993
236,yarmouth,41.7057,-70.2286,291.47,81,0,4.02,US,1690956506
237,tralee,52.2704,-9.7026,287.29,100,100,1.03,IE,1690956836
238,kralendijk,12.15,-68.2667,301.14,89,0,5.14,BQ,1690957084
239,leava,-14.3,-178.1667,300.1,81,44,2.76,WF,1690957085
240,tual,-5.6667,132.75,299.65,84,26,7.75,ID,1690956841
241,suyo,16.9762,120.5254,300.26,87,100,3.38,PH,1690957085
242,st. john's,47.5649,-52.7093,288.81,94,100,3.6,CA,1690957063
243,bidbid,23.4079,58.1283,303.85,28,41,3.91,OM,1690957085
244,carauari,-4.8828,-66.8958,295.91,83,60,0.38,BR,1690957086
245,verkhov'ye,52.8119,37.2425,294.91,68,25,2.99,RU,1690957086
246,nayoro,44.3506,142.4578,301.7,63,55,6.78,JP,1690957086
247,choma,-16.8065,26.9531,286.66,78,73,4.58,ZM,1690957086
248,buka,40.8108,69.1986,311.48,15,8,3.37,UZ,1690957086
249,ashburton,-37.8626,145.0794,291.14,55,0,3.58,AU,1690956963
250,daru,-9.0763,143.2092,299.24,76,89,6.87,PG,1690956587
251,sandnessjoen,66.0217,12.6316,291.21,59,0,1.54,NO,1690956530
252,ma'rib,15.4591,45.3253,306.45,25,92,3.96,YE,1690956608
253,andreyevo,55.9465,41.1505,294.01,65,99,2.94,RU,1690957087
254,tofol,5.3248,163.0078,300.03,83,100,5.14,FM,1690957088
255,udachny,66.4167,112.4,297.29,46,93,5.82,RU,1690956492
256,panacan,9.2463,118.4082,302.21,77,96,6.55,PH,1690957088
257,trudovoye,43.3058,132.0817,301.0,83,40,3.0,RU,1690957089
258,port elizabeth,-33.918,25.5701,281.31,87,0,2.57,ZA,1690957089
259,mana,5.6592,-53.7767,298.01,91,7,1.99,GF,1690957089
260,codrington,-38.2667,141.9667,288.22,71,0,6.53,AU,1690956513
261,kuraymah,18.55,31.85,306.48,39,81,6.47,SD,1690957090
262,east london,-33.0153,27.9116,285.56,64,7,2.92,ZA,1690956516
263,arfoud,31.4348,-4.2375,303.42,9,16,3.9,MA,1690957091
264,badger,64.8,-147.5333,296.1,54,40,3.09,US,1690957091
265,las tablas,7.7667,-80.2833,299.91,99,62,0.43,PA,1690956816
266,canutama,-6.5339,-64.3831,296.82,65,70,1.18,BR,1690957092
267,cidade velha,14.9167,-23.6167,298.41,83,20,2.57,CV,1690956859
268,road town,18.4167,-64.6167,301.2,77,6,2.64,VG,1690957092
269,bayganin,48.6947,55.8742,301.27,31,2,4.8,KZ,1690957092
270,kandalaksha,67.162,32.4123,289.27,88,82,1.96,RU,1690957093
271,ugoofaaru,5.6667,73.0,301.43,72,100,5.26,MV,1690956549
272,ourinhos,-22.9789,-49.8706,287.33,63,0,1.64,BR,1690957093
273,carbonear,47.7332,-53.2148,289.33,93,30,3.22,CA,1690957093
274,san jose del cabo,23.0589,-109.6977,303.98,80,71,0.71,MX,1690957094
275,laguna,38.421,-121.4238,295.62,68,0,3.6,US,1690957094
276,vera,-29.4593,-60.2126,294.2,53,0,4.29,AR,1690957094
277,i-n-salah,27.1935,2.4607,309.28,15,25,4.15,DZ,1690956503
278,timimoun,29.2639,0.231,306.36,14,56,4.12,DZ,1690957095
279,taulaga,-11.0553,-171.0883,301.28,77,20,4.74,AS,1690956843
280,zdvinsk,54.7021,78.661,300.73,48,42,2.25,RU,1690957095
281,sao joao da barra,-21.6403,-41.0511,293.17,74,14,2.48,BR,1690956542
282,ghat,24.9647,10.1728,304.81,17,2,2.57,LY,1690956597
283,owando,-0.4819,15.8999,297.28,66,67,0.86,CG,1690957096
284,aykhal,66.0,111.5,296.58,42,100,4.05,RU,1690956550
285,nacozari de garcia,30.3742,-109.6908,298.79,40,4,1.11,MX,1690957096
286,caucel,21.0167,-89.7167,298.19,94,100,0.0,MX,1690957096
287,ust-nera,64.5667,143.2,290.43,42,84,0.98,RU,1690957096
288,rehoboth,-23.3167,17.0833,277.8,21,0,1.52,NA,1690956525
289,tazovsky,67.4667,78.7,295.4,62,8,7.14,RU,1690956510
290,ubinskoye,55.3068,79.6802,299.21,56,10,2.65,RU,1690957097
291,sitka,57.0531,-135.33,287.09,94,100,0.0,US,1690956575
292,zvishavane,-20.3267,30.0665,284.53,83,57,5.22,ZW,1690957097
293,mitu,1.1983,-70.1733,294.0,99,68,1.2,CO,1690957098
294,weining,26.85,104.2333,293.89,78,97,4.14,CN,1690957098
295,weno,7.4515,151.8468,303.12,89,100,1.54,FM,1690956555
296,ola,59.5833,151.2833,292.12,63,100,1.95,RU,1690957098
297,nova sintra,14.8667,-24.7167,295.74,84,29,2.74,CV,1690956525
298,cheremukhovo,60.3484,59.9851,295.66,54,29,2.3,RU,1690957099
299,thunder bay,48.4001,-89.3168,286.86,93,89,0.95,CA,1690956528
300,pacific grove,36.6177,-121.9166,288.72,92,100,2.06,US,1690956839
301,kavaratti,10.5669,72.642,301.59,78,98,7.66,IN,1690956538
302,kalamata,37.0389,22.1142,300.99,63,0,3.6,GR,1690957100
303,bereket,39.2446,55.5154,309.4,28,2,0.46,TM,1690957100
304,salalah,17.0151,54.0924,300.2,94,100,4.12,OM,1690957101
305,hammerfest,70.6634,23.6821,289.4,77,75,3.6,NO,1690956825
306,ta`u,-14.2336,-169.5144,300.37,81,71,5.42,AS,1690956502
307,ellsworth,44.5434,-68.4195,288.45,91,0,0.0,US,1690957101
308,soto la marina,23.7667,-98.2167,298.57,91,39,1.93,MX,1690957101
309,kamaishi,39.2667,141.8833,302.53,62,99,4.27,JP,1690957102
310,fabens,31.5023,-106.1586,303.47,41,53,5.95,US,1690957102
311,peniche,39.3558,-9.3811,294.42,94,31,3.76,PT,1690956598
312,pokhara,28.2333,83.9833,303.34,62,100,1.35,NP,1690957102
313,parang,7.3704,124.2697,303.5,61,77,3.48,PH,1690957102
314,lesogorsk,56.0458,99.5136,300.82,48,85,1.11,RU,1690957103
315,idri,27.5,13.2667,301.91,25,0,4.01,LY,1690957103
316,campbellton,48.0075,-66.6727,284.4,91,31,2.16,CA,1690957103
317,kokkola,63.8385,23.1307,290.24,95,20,4.12,FI,1690957103
318,ketchikan,55.3422,-131.6461,287.41,88,100,2.06,US,1690957104
319,usinsk,65.9939,57.5281,296.7,47,59,4.89,RU,1690956306
320,padampur,29.6833,73.6167,310.67,40,6,6.42,IN,1690957104
321,sao felix do xingu,-6.6447,-51.995,295.71,62,88,0.68,BR,1690956607
322,coquimbo,-29.9533,-71.3436,285.0,100,100,1.54,CL,1690956387
323,happy valley-goose bay,53.3168,-60.3315,286.32,88,100,1.54,CA,1690957105
324,abong mbang,3.9833,13.1833,292.82,97,99,1.29,CM,1690957105
325,selydove,48.1471,37.3003,298.44,56,77,1.57,UA,1690957105
326,patterson,37.4716,-121.1297,294.88,70,32,1.43,US,1690956929
327,al mijlad,11.0333,27.7333,299.21,62,98,4.77,SD,1690957106
328,kolyvan',55.3053,82.7391,301.94,42,35,1.37,RU,1690957106
329,moyynkum,44.2914,72.9469,309.4,18,16,6.46,KZ,1690957106
330,maxixe,-23.8597,35.3472,292.83,59,53,5.59,MZ,1690957106
331,geraldton,-28.7667,114.6,289.38,88,100,7.2,AU,1690956435
332,moyale,3.5167,39.0584,293.35,65,86,7.33,KE,1690957107
333,sorong,-0.8833,131.25,301.4,81,45,5.13,ID,1690956555
334,shimokizukuri,40.8061,140.3861,305.38,74,99,4.12,JP,1690957107
335,valparaiso,-33.0393,-71.6273,288.95,66,0,3.09,CL,1690956984
336,urengoy,65.9667,78.3667,302.51,40,0,6.29,RU,1690957108
337,miquelon,47.0975,-56.3814,290.15,85,31,7.76,PM,1690957108
338,zyryanskoye,56.8306,86.6258,301.0,48,8,0.96,RU,1690957108
339,mahdia,35.5047,11.0622,301.12,51,0,2.48,TN,1690956786
340,kirensk,57.7853,108.1119,299.96,31,17,4.7,RU,1690956526
341,puerto deseado,-47.7503,-65.8938,277.28,45,19,15.4,AR,1690957109
342,amuntai,-2.4177,115.2494,310.37,33,9,1.03,ID,1690957109
343,sao mateus,-18.7161,-39.8589,291.01,91,26,1.6,BR,1690957109
344,cabo san lucas,22.8909,-109.9124,303.99,76,87,1.28,MX,1690957109
345,sarupathar,26.1984,93.8094,307.01,60,93,1.33,IN,1690957110
346,kingsville,27.5159,-97.8561,301.99,86,20,0.45,US,1690957110
347,fujin,47.26,132.0322,301.77,77,94,4.03,CN,1690957110
348,sault ste. marie,46.5168,-84.3333,290.46,96,0,1.03,CA,1690956940
349,lossiemouth,57.7214,-3.2834,286.57,95,20,4.12,GB,1690957111
350,enewetak,11.3474,162.3373,301.73,77,77,4.43,MH,1690957111
351,luderitz,-26.6481,15.1594,290.89,27,2,9.22,NA,1690957111
352,de aar,-30.6497,24.0123,278.75,37,0,2.14,ZA,1690957111
353,cestos city,5.46,-9.5828,297.71,89,100,2.89,LR,1690957111
354,mao,39.8885,4.2658,300.46,89,75,3.6,ES,1690956944
355,alice town,25.7167,-79.3,302.48,69,67,3.0,BS,1690956970
356,villa emilio carranza,19.9667,-96.6,298.91,85,53,1.78,MX,1690957112
357,nueva palestina,15.8,-92.75,293.76,96,98,1.09,MX,1690957113
358,brookings,44.3114,-96.7984,296.15,93,0,4.12,US,1690956993
359,mentekab,3.4854,102.3484,306.95,51,80,0.56,MY,1690957114
360,kasempa,-13.4584,25.8338,289.2,64,62,5.17,ZM,1690957114
361,taoudenni,22.6783,-3.9836,309.1,9,16,1.67,ML,1690957114
362,siwa oasis,29.2041,25.5195,303.25,31,0,3.75,EG,1690957114
363,la passe,45.5549,-0.8967,295.28,89,65,9.37,FR,1690957115
364,muisne,0.6,-80.0333,298.04,88,59,2.27,EC,1690957115
365,dakhla,23.6848,-15.958,293.16,88,40,11.83,EH,1690957115
366,pirae,-17.5167,-149.5333,298.16,73,20,1.54,PF,1690957115
367,rabo de peixe,37.8,-25.5833,292.88,88,20,1.54,PT,1690957116
368,gaalkacyo,6.7697,47.4308,299.91,62,100,10.2,SO,1690956380
369,ciudad choluteca,13.3003,-87.1908,296.85,97,100,0.69,HN,1690957116
370,swift current,50.2834,-107.8014,290.6,77,0,4.12,CA,1690957079
371,polyarnyy,69.1989,33.4478,291.51,78,38,3.44,RU,1690956802
372,sao tome,0.3365,6.7273,295.94,77,64,3.83,ST,1690956573
373,labrador city,52.9463,-66.9114,283.1,87,100,2.57,CA,1690956858
374,general conesa,-40.1,-64.4333,283.83,43,18,4.32,AR,1690957117
375,chilecito,-29.1619,-67.4974,288.33,43,0,0.72,AR,1690957117
376,svobodnyy,51.4,128.1333,302.73,25,58,5.9,RU,1690957117
377,quang ngai,15.1167,108.8,303.29,67,99,1.63,VN,1690957118
378,shache,38.4167,77.2406,309.25,13,0,2.04,CN,1690956828
379,siocon,7.7061,122.1353,302.37,76,96,4.14,PH,1690957118
380,howrah,22.5892,88.3103,302.15,84,75,6.17,IN,1690956537
381,oildale,35.4197,-119.0195,301.16,19,0,3.6,US,1690957118
382,porto novo,6.4965,2.6036,299.05,91,100,3.46,BJ,1690956797
383,santa marta,11.2408,-74.199,301.42,77,60,2.68,CO,1690957119
384,znamenskoye,57.1281,73.8282,292.8,86,93,1.81,RU,1690956532
385,erenhot,43.6475,111.9767,309.47,19,22,9.18,CN,1690957119
386,yeed,4.55,43.0333,299.49,58,100,10.14,SO,1690957119
387,edinburg,55.9521,-3.1965,288.21,94,100,6.69,GB,1690957051
388,alofi,-19.0595,-169.9187,293.09,100,100,6.69,NU,1690957120
389,ciudad lazaro cardenas,17.9583,-102.2,299.98,86,85,0.68,MX,1690957120
390,longyearbyen,78.2186,15.6401,283.06,76,0,1.54,SJ,1690957120
391,miasskoye,55.2784,61.8905,298.96,46,88,4.27,RU,1690957120
392,stephenville,32.2207,-98.2023,304.15,44,0,0.0,US,1690956582
393,illizi,26.4833,8.4667,306.56,16,7,1.91,DZ,1690956584
394,yanchep,-31.55,115.6833,290.34,74,78,7.31,AU,1690957121
395,fomboni,-12.28,43.7425,298.34,74,12,9.86,KM,1690957121
396,aleksandrovsk-sakhalinskiy,50.8975,142.1561,290.84,73,62,3.74,RU,1690957121
397,fortuna,40.5982,-124.1573,287.96,91,12,1.3,US,1690956529
398,maydolong,11.4992,125.5011,306.38,53,98,4.57,PH,1690957122
399,paphos,34.7667,32.4167,303.83,65,20,1.03,CY,1690957036
400,tuy hoa,13.0833,109.3,301.49,71,100,6.22,VN,1690956549
401,pangody,65.85,74.4859,301.46,45,1,6.56,RU,1690956765
402,nadi,-17.8,177.4167,298.15,73,20,1.54,FJ,1690956770
403,helena,46.5927,-112.0361,295.7,38,0,3.13,US,1690956875
404,poxoreo,-15.8372,-54.3892,293.82,45,0,1.2,BR,1690957123
405,massena,44.9281,-74.8919,285.77,93,0,0.0,US,1690956865
406,buala,-8.145,159.5921,298.29,92,100,2.28,SB,1690957124
407,glace bay,46.1969,-59.957,288.24,96,20,3.09,CA,1690957124
408,newman,37.3138,-121.0208,297.34,70,38,0.89,US,1690956563
409,malango,-2.9627,119.9001,302.14,53,34,2.35,ID,1690957124
410,cavelossim,15.1726,73.9419,300.61,80,100,6.88,IN,1690957125
411,mount horeb,43.0086,-89.7385,294.54,89,59,2.84,US,1690956891
412,merowe,18.4833,31.8167,306.4,39,80,6.3,SD,1690957125
413,crane,31.3974,-102.3501,303.12,32,33,5.98,US,1690956584
414,ortakoy,38.7373,34.0387,296.29,35,33,1.6,TR,1690957125
415,kudat,6.8837,116.8477,307.11,52,20,6.17,MY,1690957126
416,sengiley,53.9622,48.7944,298.19,47,29,2.64,RU,1690957126
417,cascais,38.6979,-9.4215,295.1,84,75,9.39,PT,1690957126
418,mafra,-26.1114,-49.8053,283.62,94,0,0.44,BR,1690957126
419,zaranj,30.9667,61.8833,312.13,9,0,6.49,AF,1690957097
420,saint-pierre,-21.3393,55.4781,299.02,73,20,7.72,RE,1690957127
421,quelimane,-17.8786,36.8883,295.12,68,75,6.17,MZ,1690956908
422,kalmunai,7.4167,81.8167,306.39,46,100,2.2,LK,1690956865
423,cidreira,-30.1811,-50.2056,289.51,88,0,1.49,BR,1690957127
424,thisted,56.9552,8.6949,289.34,82,9,4.06,DK,1690957128
425,minas de marcona,-15.2119,-75.1103,286.2,87,48,2.78,PE,1690956764
426,amga,60.8953,131.9608,288.68,86,90,1.63,RU,1690957128
427,karakulino,56.012,53.7067,293.13,78,100,1.4,RU,1690957128
428,haiku-pauwela,20.9219,-156.3051,298.17,70,40,6.17,US,1690957128
429,sao gabriel da cachoeira,-0.1303,-67.0892,295.44,97,48,1.06,BR,1690956637
430,fier,40.7239,19.5561,300.21,49,41,1.33,AL,1690957129
431,beaumont,30.0861,-94.1019,301.51,88,0,1.54,US,1690956833
432,mitchell,43.7094,-98.0298,296.14,88,75,2.06,US,1690957129
433,embi,48.8264,58.1442,300.44,34,0,6.64,KZ,1690957129
434,tsiombe,-25.3,45.4833,293.71,60,84,5.39,MG,1690957130
435,kapiri mposhi,-13.9652,28.6809,287.44,68,62,5.75,ZM,1690957130
436,basco,20.4487,121.9702,301.39,85,94,11.63,PH,1690957130
437,fauske,67.2588,15.3918,292.01,67,13,2.73,NO,1690957130
438,hoa binh,20.8133,105.3383,301.41,90,100,1.06,VN,1690957130
439,namdrik,5.5994,168.1028,301.44,74,16,3.16,MH,1690957131
440,kondopoga,62.2057,34.2614,293.97,60,43,3.35,RU,1690957131
441,proletarsk,46.7031,41.7192,302.46,43,61,5.06,RU,1690957131
442,northam,51.0333,-4.2167,289.63,93,78,9.6,GB,1690957131
443,goianira,-16.4961,-49.4264,294.05,56,0,2.19,BR,1690957132
444,lethem,3.3803,-59.7968,297.08,88,75,2.89,GY,1690957132
445,ilula,-7.6766,36.0366,289.38,81,45,4.36,TZ,1690957132
446,labytnangi,66.6572,66.4183,296.95,58,10,6.73,RU,1690957132
447,haapavesi,64.1333,25.3667,291.77,90,100,1.79,FI,1690957133
448,luwuk,-0.9516,122.7875,302.36,71,29,3.8,ID,1690957133
449,betioky,-23.7167,44.3833,292.89,54,0,6.51,MG,1690957133
450,baotou,40.6522,109.8222,307.92,32,66,3.04,CN,1690957133
451,kongsvinger,60.1905,11.9977,287.62,76,99,1.77,NO,1690957134
452,qamdo,31.1667,97.2333,289.91,44,100,0.73,CN,1690956539
453,tongren,27.7172,109.1853,298.3,93,100,1.28,CN,1690957058
454,trondheim,63.4305,10.3951,290.18,86,42,2.17,NO,1690956884
455,edson,53.5835,-116.4356,289.23,72,100,2.57,CA,1690957134
456,san rafael del sur,11.8485,-86.4384,297.16,93,100,1.35,NI,1690957135
457,cupira,-8.6167,-35.95,293.2,94,82,1.49,BR,1690957135
458,nuuk,64.1835,-51.7216,279.49,100,100,6.71,GL,1690956543
459,buxton,53.2574,-1.9098,286.03,97,100,0.45,GB,1690957136
460,amursk,50.2261,136.8994,297.45,62,62,3.55,RU,1690957136
461,la manga del mar menor,37.6413,-0.7165,299.97,93,40,1.03,ES,1690956955
462,conception bay south,47.4999,-52.9981,288.68,95,28,3.28,CA,1690957136
463,yacimiento rio turbio,-51.5732,-72.3508,269.15,89,99,6.66,AR,1690957136
464,bardai,11.65,7.2333,295.04,92,100,7.01,NG,1690956566
465,pont rouge,48.8833,-72.0825,284.31,69,98,2.55,CA,1690957137
466,vernon,50.2581,-119.2691,294.68,45,1,0.51,CA,1690956764
467,silvan,38.1419,41.0081,301.31,15,0,2.12,TR,1690957137
468,galle,6.0367,80.217,301.72,76,97,5.63,LK,1690956598
469,kaoma,-14.7833,24.8,289.6,57,49,5.24,ZM,1690957138
470,mahanoro,-19.9,48.8,295.75,69,1,4.45,MG,1690957138
471,smithers,54.7804,-127.1743,284.43,90,77,1.02,CA,1690956566
472,tazacorte,28.629,-17.9293,296.69,73,20,8.23,ES,1690957138
473,chonchi,-42.6128,-73.8092,277.71,87,89,2.89,CL,1690956987
474,arraial do cabo,-22.9661,-42.0278,293.15,82,10,7.18,BR,1690956603
475,bonga,7.2833,36.2333,289.74,99,100,0.63,ET,1690957139
476,hami,42.8,93.45,310.21,13,41,4.22,CN,1690956599
477,bamboo flat,11.7,92.7167,304.2,74,40,8.75,IN,1690957139
478,kudahuvadhoo,2.6708,72.8944,301.47,70,97,3.58,MV,1690956605
479,sawakin,19.1059,37.3321,308.56,46,8,6.04,SD,1690957140
480,ialibu,-6.2821,143.9935,290.69,86,98,1.45,PG,1690957140
481,shimoda,34.6667,138.95,307.1,67,29,4.85,JP,1690957140
482,saldanha,-33.0117,17.9442,283.31,54,40,3.63,ZA,1690956583
483,nabire,-3.3667,135.4833,299.26,86,100,0.45,ID,1690957140
484,kargasok,59.0556,80.8572,298.19,57,47,3.55,RU,1690957141
485,svetlyy,54.675,20.1347,292.57,85,84,6.65,RU,1690957141
486,manaure,11.7751,-72.4445,300.38,82,27,0.98,CO,1690957141
487,abeokuta,7.15,3.35,296.1,97,100,1.53,NG,1690957141
488,ajdabiya,30.7554,20.2263,301.28,54,0,1.34,LY,1690957142
489,klaksvik,62.2266,-6.589,283.66,98,100,8.6,FO,1690957142
490,mumbwa,-14.9783,27.0619,288.37,73,57,5.35,ZM,1690957142
491,rumonge,-3.9736,29.4386,299.15,39,7,1.48,BI,1690957142
492,nicoya,10.1483,-85.452,296.53,95,95,1.44,CR,1690957143
493,khadan khak,30.7477,67.7085,303.4,12,0,4.69,PK,1690957143
494,quellon,-43.1167,-73.6167,276.29,93,40,2.57,CL,1690956972
495,mollendo,-17.0231,-72.0147,289.46,87,38,1.58,PE,1690957143
496,menongue,-14.6585,17.691,283.45,17,81,1.49,AO,1690956553
497,winterset,41.3308,-94.0138,297.25,93,98,3.06,US,1690957144
498,san ignacio de velasco,-16.3667,-60.95,294.22,47,0,0.66,BO,1690957144
499,zhaoqing,23.0512,112.4597,306.38,49,99,2.53,CN,1690957059
500,midvagur,62.0511,-7.1939,283.61,87,75,7.72,FO,1690956847
501,new norfolk,-42.7826,147.0587,288.66,61,31,1.64,AU,1690957144
502,sovetskaya gavan',48.9723,140.2878,290.92,72,100,2.04,RU,1690957145
503,molln,53.6333,10.6833,289.11,82,100,2.06,DE,1690957145
504,nova vicosa,-17.8919,-39.3719,293.61,80,6,3.1,BR,1690956576
505,vila velha,-20.3297,-40.2925,292.01,97,40,1.03,BR,1690957145
506,papao,-17.75,-149.55,298.52,74,97,4.92,PF,1690956567
507,morehead city,34.7229,-76.726,297.59,80,0,2.57,US,1690956805
508,aral,40.5156,81.2636,309.1,17,4,2.49,CN,1690956553
509,shubarshi,48.5872,57.1869,301.06,32,2,5.99,KZ,1690956851
510,grosseto,42.8333,11.25,298.79,83,0,1.03,IT,1690956968
511,walvis bay,-22.9575,14.5053,289.31,17,42,8.54,NA,1690956699
512,narvik,68.4384,17.4272,290.82,75,7,2.6,NO,1690957147
513,coro,11.4045,-69.6734,300.16,73,2,5.57,VE,1690957147
514,sidi akkacha,36.4647,1.3026,296.31,43,0,1.76,DZ,1690957147
515,guanica,17.9716,-66.908,302.03,74,99,1.82,PR,1690957148
516,santona,43.4439,-3.4576,296.04,78,0,1.08,ES,1690957148
517,selfoss,63.9331,-20.9971,284.29,88,52,1.75,IS,1690956548
518,al jawf,29.5,38.75,305.45,17,0,8.51,SA,1690956790
519,tangalle,6.024,80.7911,305.24,61,87,7.46,LK,1690956981
520,tolanaro,-25.0319,46.9987,293.67,67,61,3.27,MG,1690957149
521,le port,-20.9373,55.2919,299.2,81,1,0.62,RE,1690957149
522,constitucion,-35.3333,-72.4167,283.69,79,2,3.78,CL,1690957149
523,belle fourche,44.6714,-103.8522,299.5,56,67,2.05,US,1690957149
524,pangai,-19.8,-174.35,295.21,83,100,6.17,TO,1690957150
525,ciudad gustavo diaz ordaz,26.2333,-98.5833,302.18,81,15,5.24,MX,1690957150
526,chinsali,-10.5414,32.0816,290.33,52,5,6.12,ZM,1690957150
527,swakopmund,-22.6833,14.5333,289.25,20,43,0.45,NA,1690956601
528,nemuro,43.3236,145.575,293.24,83,70,6.25,JP,1690956444
529,oliveira,-20.6964,-44.8272,285.04,73,0,1.7,BR,1690957151
530,dazuocun,24.8862,118.9643,303.05,67,11,2.07,CN,1690957151
531,kapuskasing,49.4169,-82.4331,287.15,72,98,1.54,CA,1690957151
532,bay city,43.5945,-83.8889,292.27,87,0,3.09,US,1690957039
533,marang,5.2056,103.2059,302.7,75,99,1.54,MY,1690956876
534,singaraja,-8.112,115.0882,302.97,60,2,1.77,ID,1690957152
535,rumbek,6.802,29.6912,297.0,81,100,1.06,SS,1690957152
536,sao raimundo nonato,-9.0153,-42.6994,294.68,72,28,2.33,BR,1690957152
537,neryungri,56.6709,124.6491,291.85,43,30,4.15,RU,1690956607
538,grand falls-windsor,48.9332,-55.6649,287.32,94,22,2.34,CA,1690957153
539,kununurra,-15.7667,128.7333,305.14,23,71,4.12,AU,1690956571
540,charikar,35.0136,69.1714,305.98,11,0,4.16,AF,1690957153
541,san fernando de apure,7.8878,-67.4724,296.12,95,19,1.26,VE,1690956847
542,languyan,5.2618,120.0807,303.5,69,3,4.89,PH,1690957153
543,essaouira,31.5125,-9.77,292.73,85,0,8.9,MA,1690956593
544,lijiang,26.8688,100.2207,293.96,83,95,1.73,CN,1690957154
545,vuktyl,63.8567,57.3094,297.59,39,52,3.4,RU,1690957154
546,lesnoy,57.6198,63.0784,296.78,58,15,2.74,RU,1690957154
547,marsa alam,25.0757,34.8918,306.85,46,0,7.72,EG,1690957155
548,betare oya,5.6,14.0833,292.95,99,100,1.73,CM,1690957155
549,aitape,-3.1374,142.3475,301.56,81,45,3.59,PG,1690957155
550,kerikeri,-35.2268,173.9474,282.54,80,10,2.24,NZ,1690956760
551,aasiaat,68.7098,-52.8699,276.34,92,97,1.08,GL,1690957156
552,scarborough,54.2797,-0.4044,288.52,91,100,3.13,GB,1690956878
553,masumbwe,-3.6333,32.1833,294.48,52,63,5.4,TZ,1690957156
554,sao luiz gonzaga,-28.4083,-54.9608,289.6,80,0,2.89,BR,1690957156
555,porsgrunn,59.1405,9.6561,289.18,73,97,0.77,NO,1690957157
556,una,20.8167,71.0333,301.49,75,99,9.03,IN,1690957157
557,magadan,59.5667,150.8,291.78,65,100,1.51,RU,1690956796
558,forster,-32.1667,152.5167,291.09,73,54,3.07,AU,1690956823
559,frutal,-20.0247,-48.9406,292.08,45,0,2.67,BR,1690957157
560,cockburn town,21.4612,-71.1419,301.98,77,90,6.59,TC,1690956560
561,prince rupert,54.3161,-130.3201,287.98,94,0,2.06,CA,1690957158
562,ixtapa,20.7,-105.2,298.58,90,90,1.39,MX,1690957158
563,bathsheba,13.2167,-59.5167,300.49,89,20,2.06,BB,1690957158
564,barra,-11.0894,-43.1417,295.37,67,0,3.59,BR,1690957159
565,saint-philippe,-21.3585,55.7679,297.92,77,34,4.22,RE,1690956774
566,grand baie,-20.0182,57.5802,297.84,72,4,3.13,MU,1690957103
567,sturgis,41.7992,-85.4192,294.04,79,100,3.6,US,1690957159
568,copiapo,-27.3667,-70.3333,285.98,73,0,0.68,CL,1690956599
569,chadron,42.8294,-102.9999,296.4,78,40,4.47,US,1690957131
570,dhidhdhoo,6.8833,73.1,301.43,76,100,5.64,MV,1690956836
571,manokwari,-0.8667,134.0833,300.83,78,52,1.43,ID,1690957160
572,laascaanood,8.4774,47.3597,298.1,61,100,14.55,SO,1690957160
573,vryburg,-26.9566,24.7284,278.57,67,0,3.33,ZA,1690957161
574,fale old settlement,-9.3852,-171.2468,301.41,77,26,3.91,TK,1690957161
575,ouidah,6.3631,2.0851,299.07,90,100,4.48,BJ,1690957161
576,the pas,53.8251,-101.2541,293.16,68,0,3.6,CA,1690957161
577,mili,6.0815,171.735,301.95,72,13,3.12,MH,1690957162
578,harsin,34.2721,47.5861,303.6,12,0,1.53,IR,1690957162
579,butha-buthe,-28.8333,28.5,273.37,44,0,0.6,LS,1690957162
580,albemarle,35.3501,-80.2001,295.44,78,0,1.54,US,1690957163
581,jiaojiang,28.6803,121.4428,309.26,71,86,7.95,CN,1690956581
